[
  {
    "id": 0,
    "es": {
      "name": "Ingeniero Especializado en I+D para Proyectos Tecnológicos",
      "date": "12/07/2006 - 12/01/2007",
      "duration": "7 meses",
      "location": "Universidad Nacional de Colombia",
      "city": "Manizales, Colombia"
    },
    "en": {
      "name": "Engineer Specialized in R&D for Technological Projects",
      "date": "07/12/2006 - 01/12/2007",
      "duration": "7 months",
      "location": "National University of Colombia",
      "city": "Manizales, Colombia"
    }
  },
  {
    "id": 1,
    "es": {
      "name": "Ingeniero Especializado en Gestión de Calidad",
      "date": "01/10/2007 - 28/02/2009",
      "duration": "4 años y 2 meses",
      "location": "Universidad Nacional de Colombia",
      "city": "Manizales, Colombia"
    },
    "en": {
      "name": "Engineer Specialized in Quality Management",
      "date": "10/01/2007 - 02/28/2009",
      "duration": "4 years and 2 months",
      "location": "National University of Colombia",
      "city": "Manizales, Colombia"
    }
  },
  {
    "id": 2,
    "es": {
      "name": "Ingeniero Especializado en Análisis de Materiales Nanoestructurados y Funcionales",
      "date": "10/03/2009 - 24/11/2009",
      "duration": "9 meses",
      "location": "Universidad Nacional de Colombia",
      "city": "Manizales, Colombia"
    },
    "en": {
      "name": "Engineer Specialized in Analysis of Nanostructured and Functional Materials",
      "date": "03/10/2009 - 11/24/2009",
      "duration": "9 months",
      "location": "National University of Colombia",
      "city": "Manizales, Colombia"
    }
  },
  {
    "id": 3,
    "es": {
      "name": "Ingeniero Químico Analista de Laboratorio",
      "date": "14/12/2009 - 10/02/2009",
      "duration": "3 meses",
      "location": "Universidad Nacional de Colombia",
      "city": "Manizales, Colombia"
    },
    "en": {
      "name": "Chemical Engineer Laboratory Analyst",
      "date": "12/14/2009 - 02/10/2009",
      "duration": "3 months",
      "location": "National University of Colombia",
      "city": "Manizales, Colombia"
    }
  },
  {
    "id": 4,
    "es": {
      "name": "Ingeniero Técnico en Instrumentación Fisicoquímica",
      "date": "29/01/2010 - 26/02/2011",
      "duration": "1 año y 1 mes",
      "location": "Universidad Nacional de Colombia",
      "city": "Manizales, Colombia"
    },
    "en": {
      "name": "Technical Engineer in Physicochemical Instrumentation",
      "date": "01/29/2010 - 02/26/2011",
      "duration": "1 year and 1 month",
      "location": "National University of Colombia",
      "city": "Manizales, Colombia"
    }
  },
  {
    "id": 5,
    "es": {
      "name": "Profesor Universitario con Título de Máster",
      "date": "08/02/2010 - 14/02/2020",
      "duration": "10 años",
      "location": "Universidad de Caldas",
      "city": "Manizales, Colombia"
    },
    "en": {
      "name": "University Professor with Master's Degree",
      "date": "02/08/2010 - 02/14/2020",
      "duration": "10 years",
      "location": "University of Caldas",
      "city": "Manizales, Colombia"
    }
  },
  {
    "id": 6,
    "es": {
      "name": "Profesor Universitario con Título de Máster",
      "date": "31/07/2015 - 13/06/2020",
      "duration": "5 años",
      "location": "Universidad Católica de Manizales",
      "city": "Manizales, Colombia"
    },
    "en": {
      "name": "University Professor with Master's Degree",
      "date": "07/31/2015 - 06/13/2020",
      "duration": "5 years",
      "location": "Catholic University of Manizales",
      "city": "Manizales, Colombia"
    }
  },
  {
    "id": 7,
    "es": {
      "name": "Doctorando",
      "date": "01/09/2019 - 23/07/2024",
      "duration": "4 años",
      "location": "Universidad de Granada",
      "city": "Granada, España"
    },
    "en": {
      "name": "PhD Candidate",
      "date": "09/01/2019 - 07/23/2024",
      "duration": "4 years",
      "location": "University of Granada",
      "city": "Granada, Spain"
    }
  },
  {
    "id": 8,
    "es": {
      "name": "Investigación posdoctoral",
      "date": "11/12/2024 - Actual",
      "location": "Universidad de Castilla-La Mancha",
      "city": "Castilla-La Mancha, España"
    },
    "en": {
      "name": "Postdoctoral Research",
      "date": "12/11/2024 - Present",
      "location": "University of Castilla-La Mancha",
      "city": "Castilla-La Mancha, Spain"
    }
  }
]
