[
  {
    "id": 0,
    "es": {
      "name": "Ingeniero Especializado en I+D para Proyectos Tecnológicos",
      "date": "Jul 2006 - Ene 2007",
      "duration": "7 meses",
      "location": "Universidad Nacional de Colombia",
      "city": "Manizales, Colombia"
    },
    "en": {
      "name": "Engineer Specialized in R&D for Technological Projects",
      "date": "Jul 2006 - Jan 2007",
      "duration": "7 months",
      "location": "National University of Colombia",
      "city": "Manizales, Colombia"
    }
  },
  {
    "id": 1,
    "es": {
      "name": "Ingeniero Especializado en Gestión de Calidad",
      "date": "Oct 2007 - Feb 2009",
      "duration": "4 años y 2 meses",
      "location": "Universidad Nacional de Colombia",
      "city": "Manizales, Colombia"
    },
    "en": {
      "name": "Engineer Specialized in Quality Management",
      "date": "Oct 2007 - Feb 2009",
      "duration": "4 years and 2 months",
      "location": "National University of Colombia",
      "city": "Manizales, Colombia"
    }
  },
  {
    "id": 2,
    "es": {
      "name": "Ingeniero Especializado en Análisis de Materiales Nanoestructurados y Funcionales",
      "date": "Mar 2009 - Nov 2009",
      "duration": "9 meses",
      "location": "Universidad Nacional de Colombia",
      "city": "Manizales, Colombia"
    },
    "en": {
      "name": "Engineer Specialized in Analysis of Nanostructured and Functional Materials",
      "date": "Mar 2009 - Nov 2009",
      "duration": "9 months",
      "location": "National University of Colombia",
      "city": "Manizales, Colombia"
    }
  },
  {
    "id": 3,
    "es": {
      "name": "Ingeniero Químico Analista de Laboratorio",
      "date": "Dic 2009 - Feb 2010",
      "duration": "3 meses",
      "location": "Universidad Nacional de Colombia",
      "city": "Manizales, Colombia"
    },
    "en": {
      "name": "Chemical Engineer Laboratory Analyst",
      "date": "Dec 2009 - Feb 2010",
      "duration": "3 months",
      "location": "National University of Colombia",
      "city": "Manizales, Colombia"
    }
  },
  {
    "id": 4,
    "es": {
      "name": "Ingeniero Técnico en Instrumentación Fisicoquímica",
      "date": "Ene 2010 - Feb 2011",
      "duration": "1 año y 1 mes",
      "location": "Universidad Nacional de Colombia",
      "city": "Manizales, Colombia"
    },
    "en": {
      "name": "Technical Engineer in Physicochemical Instrumentation",
      "date": "Jan 2010 - Feb 2011",
      "duration": "1 year and 1 month",
      "location": "National University of Colombia",
      "city": "Manizales, Colombia"
    }
  },
  {
    "id": 5,
    "es": {
      "name": "Profesor Universitario con Título de Máster",
      "date": "Feb 2010 - Feb 2020",
      "duration": "10 años",
      "location": "Universidad de Caldas",
      "city": "Manizales, Colombia"
    },
    "en": {
      "name": "University Professor with Master's Degree",
      "date": "Feb 2010 - Feb 2020",
      "duration": "10 years",
      "location": "University of Caldas",
      "city": "Manizales, Colombia"
    }
  },
  {
    "id": 6,
    "es": {
      "name": "Profesor Universitario con Título de Máster",
      "date": "Jul 2015 - Jun 2020",
      "duration": "5 años",
      "location": "Universidad Católica de Manizales",
      "city": "Manizales, Colombia"
    },
    "en": {
      "name": "University Professor with Master's Degree",
      "date": "Jul 2015 - Jun 2020",
      "duration": "5 years",
      "location": "Catholic University of Manizales",
      "city": "Manizales, Colombia"
    }
  },
  {
    "id": 7,
    "es": {
      "name": "Doctorando",
      "date": "Sep 2019 - Jul 2024",
      "duration": "4 años",
      "location": "Universidad de Granada",
      "city": "Granada, España"
    },
    "en": {
      "name": "PhD Candidate",
      "date": "Sep 2019 - Jul 2024",
      "duration": "4 years",
      "location": "University of Granada",
      "city": "Granada, Spain"
    }
  },
  {
    "id": 8,
    "es": {
      "name": "Investigación posdoctoral",
      "date": "Dic 2024 - Presente",
      "location": "Universidad de Castilla-La Mancha",
      "city": "Castilla-La Mancha, España"
    },
    "en": {
      "name": "Postdoctoral Research",
      "date": "Dec 2024 - Present",
      "location": "University of Castilla-La Mancha",
      "city": "Castilla-La Mancha, Spain"
    }
  }
]
